City_ID,City,Lat,Lng,Max Temp,Humidity,Cloudiness,Wind Speed,Country,Date,Current Description
0,Jamestown,-33.21,138.6,64.56,72,4,15.55,AU,2020-01-03 19:57:34,clear sky
1,Tarbagatay,51.48,107.36,-18.4,75,12,4.47,RU,2020-01-03 19:53:34,mist
2,Dwarka,28.58,77.04,62.01,93,20,1.97,IN,2020-01-03 19:57:34,mist
3,Indianola,40.24,-100.42,42.8,48,1,12.75,US,2020-01-03 19:57:35,clear sky
4,Souillac,45.6,-0.6,50.0,87,90,5.82,FR,2020-01-03 19:57:35,overcast clouds
5,Guayaramerin,-10.82,-65.36,87.8,62,75,6.93,BO,2020-01-03 19:57:35,broken clouds
6,Khatanga,71.98,102.47,-5.01,98,100,6.38,RU,2020-01-03 19:57:36,light snow
7,Los Llanos De Aridane,28.66,-17.92,64.4,55,20,8.05,ES,2020-01-03 19:53:36,few clouds
8,Kodiak,39.95,-94.76,48.0,65,40,14.99,US,2020-01-03 19:57:36,scattered clouds
9,Provideniya,64.42,-173.23,-13.32,70,0,9.57,RU,2020-01-03 19:57:37,clear sky
10,Saint-Philippe,45.36,-73.48,42.01,80,90,5.82,CA,2020-01-03 19:57:37,moderate rain
11,Florianopolis,-27.6,-48.55,82.0,74,75,11.41,BR,2020-01-03 19:56:45,broken clouds
12,Thompson,55.74,-97.86,15.8,92,90,6.93,CA,2020-01-03 19:57:38,light snow
13,Ajdabiya,30.75,20.22,55.56,70,30,7.29,LY,2020-01-03 19:57:39,light rain
14,Ribeira Grande,38.52,-28.7,62.6,82,75,16.11,PT,2020-01-03 19:57:39,broken clouds
15,Atuona,-9.8,-139.03,80.35,76,9,18.25,PF,2020-01-03 19:53:40,light rain
16,Fairbanks,64.84,-147.72,-5.01,74,1,2.82,US,2020-01-03 19:57:40,mist
17,Goundam,16.42,-3.66,60.26,16,20,12.19,ML,2020-01-03 19:57:40,few clouds
18,Tatui,-23.36,-47.86,79.0,61,54,8.99,BR,2020-01-03 19:57:40,broken clouds
19,Rikitea,-23.12,-134.97,79.43,77,100,9.75,PF,2020-01-03 19:57:41,light rain
20,Iberia,-11.41,-69.49,78.84,86,96,3.78,PE,2020-01-03 19:57:41,light rain
21,Tura,64.27,100.22,-5.42,99,100,1.12,RU,2020-01-03 19:53:42,light snow
22,Albany,42.65,-73.75,46.99,61,90,6.93,US,2020-01-03 19:57:42,overcast clouds
23,Rongcheng,37.16,122.42,35.89,60,97,7.54,CN,2020-01-03 19:57:43,overcast clouds
24,Longyearbyen,78.22,15.63,5.0,65,20,18.34,NO,2020-01-03 19:57:44,few clouds
25,Busselton,-33.64,115.35,44.01,49,0,8.77,AU,2020-01-03 19:57:44,clear sky
26,Kysyl-Syr,63.9,122.77,-29.4,95,100,8.9,RU,2020-01-03 19:57:44,overcast clouds
27,Bredasdorp,-34.53,20.04,69.8,68,12,3.36,ZA,2020-01-03 19:57:45,few clouds
28,Kruisfontein,-34.0,24.73,64.89,96,22,3.4,ZA,2020-01-03 19:57:45,few clouds
29,Mataura,-46.19,168.86,48.99,76,99,14.0,NZ,2020-01-03 19:57:46,light rain
30,Dikson,73.51,80.55,-4.72,95,70,18.01,RU,2020-01-03 19:57:46,broken clouds
31,Talnakh,69.49,88.39,1.4,77,40,17.9,RU,2020-01-03 19:53:47,light snow
32,Mount Gambier,-37.83,140.78,64.4,82,90,16.11,AU,2020-01-03 19:53:47,overcast clouds
33,Boda,4.32,17.47,71.98,23,100,5.61,CF,2020-01-03 19:53:47,overcast clouds
34,Waterloo,8.34,-13.07,82.4,69,2,10.29,SL,2020-01-03 19:55:51,haze
35,Nome,30.04,-94.42,73.4,64,1,3.36,US,2020-01-03 19:57:48,clear sky
36,Cabimas,10.39,-71.44,85.82,61,100,13.87,VE,2020-01-03 19:53:48,overcast clouds
37,Lebu,8.96,38.73,59.0,62,75,6.93,ET,2020-01-03 19:57:48,broken clouds
38,Concarneau,47.88,-3.92,46.99,75,90,4.7,FR,2020-01-03 19:57:49,overcast clouds
39,Tiksi,71.64,128.87,-19.19,80,97,5.5,RU,2020-01-03 19:57:49,overcast clouds
40,Rocha,-34.48,-54.34,73.15,54,13,13.62,UY,2020-01-03 19:57:49,few clouds
41,Punta Arenas,-53.16,-70.91,57.2,43,40,13.87,CL,2020-01-03 19:57:50,light rain
42,Yellowknife,62.45,-114.38,5.0,84,75,8.05,CA,2020-01-03 19:57:50,light snow
43,Qaanaaq,77.48,-69.36,-40.18,97,100,7.56,GL,2020-01-03 19:53:51,overcast clouds
44,East London,-33.02,27.91,73.45,94,100,15.01,ZA,2020-01-03 19:57:51,light rain
45,Manzhouli,49.6,117.43,1.0,89,0,7.72,CN,2020-01-03 19:57:51,clear sky
46,Kapaa,22.08,-159.32,75.2,73,75,18.34,US,2020-01-03 19:57:51,broken clouds
47,Lompoc,34.64,-120.46,72.0,30,1,3.36,US,2020-01-03 19:57:52,clear sky
48,Tuktoyaktuk,69.44,-133.03,-18.4,75,75,14.99,CA,2020-01-03 19:57:52,broken clouds
49,Jutai,-1.71,-47.89,77.85,96,100,3.22,BR,2020-01-03 19:57:52,moderate rain
50,Pevek,69.7,170.27,-0.49,63,67,8.57,RU,2020-01-03 19:57:53,broken clouds
51,Ippy,6.26,21.2,73.62,27,99,5.61,CF,2020-01-03 19:57:53,overcast clouds
52,Ushuaia,-54.81,-68.31,60.8,57,75,6.93,AR,2020-01-03 19:56:11,broken clouds
53,Nikolskoye,59.7,30.79,41.0,86,90,13.42,RU,2020-01-03 19:57:54,light intensity shower rain
54,Port Alfred,-33.59,26.89,68.0,96,100,3.0,ZA,2020-01-03 19:53:53,light rain
55,Puerto Narino,-3.77,-70.38,84.2,79,40,5.82,CO,2020-01-03 19:57:55,scattered clouds
56,Grand Gaube,-20.01,57.66,77.0,94,75,1.12,MU,2020-01-03 19:57:55,shower rain
57,Mayo,63.59,-135.9,-7.6,83,40,5.82,CA,2020-01-03 19:53:56,scattered clouds
58,Victoria,5.28,115.24,80.6,83,75,5.82,BN,2020-01-03 19:53:37,broken clouds
59,Whitehorse,60.72,-135.06,6.01,84,75,2.24,CA,2020-01-03 19:53:57,light snow
60,Coihaique,-45.58,-72.07,69.8,59,75,12.75,CL,2020-01-03 19:57:57,broken clouds
61,Bluff,-23.58,149.07,72.28,75,30,10.8,AU,2020-01-03 19:57:57,scattered clouds
62,Chokurdakh,70.62,147.9,-17.64,97,24,4.85,RU,2020-01-03 19:57:57,few clouds
63,Bambous Virieux,-20.34,57.76,77.0,94,75,1.12,MU,2020-01-03 19:57:58,shower rain
64,Vanimo,-2.67,141.3,82.49,78,100,16.69,PG,2020-01-03 19:53:58,moderate rain
65,Walvis Bay,-22.95,14.51,64.4,77,0,8.05,NA,2020-01-03 19:57:58,light rain
66,Tateyama,36.66,137.31,42.01,88,100,1.01,JP,2020-01-03 19:57:59,light snow
67,Egvekinot,66.32,-179.17,-13.49,78,0,11.68,RU,2020-01-03 19:53:59,clear sky
68,Monte Carmelo,-18.73,-47.5,76.08,90,70,4.16,BR,2020-01-03 19:55:16,moderate rain
69,Butaritari,3.07,172.79,83.46,78,100,10.47,KI,2020-01-03 19:58:00,light rain
70,Acapulco,16.86,-99.88,87.8,55,75,6.93,MX,2020-01-03 19:58:00,broken clouds
71,Kattivakkam,13.22,80.32,81.0,88,40,4.7,IN,2020-01-03 19:58:01,scattered clouds
72,Hilo,19.71,-155.08,77.0,64,1,3.36,US,2020-01-03 19:53:06,clear sky
73,Touros,-5.2,-35.46,86.0,62,20,14.99,BR,2020-01-03 19:58:01,few clouds
74,Saint Anthony,43.97,-111.68,32.0,85,90,6.93,US,2020-01-03 19:58:02,overcast clouds
75,Saskylakh,71.97,114.09,-17.27,96,92,7.09,RU,2020-01-03 19:54:03,overcast clouds
76,Bathurst,-33.42,149.58,77.0,50,0,5.86,AU,2020-01-03 19:54:03,clear sky
77,Klaksvik,62.23,-6.59,32.0,63,30,28.86,FO,2020-01-03 19:54:04,scattered clouds
78,Airai,-8.93,125.41,68.27,92,100,3.76,TL,2020-01-03 19:54:05,light rain
79,Pavlodar,52.28,76.96,24.8,92,90,8.95,KZ,2020-01-03 19:54:05,overcast clouds
80,Carnarvon,-30.97,22.13,72.57,29,0,11.59,ZA,2020-01-03 19:54:06,clear sky
81,Arraial Do Cabo,-22.97,-42.02,78.8,88,75,12.75,BR,2020-01-03 19:54:06,broken clouds
82,Cayenne,4.94,-52.33,84.2,74,75,9.17,GF,2020-01-03 19:58:06,broken clouds
83,Lagoa,37.14,-8.45,59.0,58,75,4.7,PT,2020-01-03 19:54:07,broken clouds
84,Atasu,48.68,71.64,18.61,95,99,3.65,KZ,2020-01-03 19:58:07,overcast clouds
85,Bathsheba,13.22,-59.52,86.0,58,40,11.41,BB,2020-01-03 19:58:08,scattered clouds
86,Barrow,-38.31,-60.23,85.75,31,0,12.5,AR,2020-01-03 19:54:09,clear sky
87,Pacifica,37.61,-122.49,62.01,67,1,6.93,US,2020-01-03 19:54:09,clear sky
88,Mackay,53.65,-115.58,19.4,92,90,10.29,CA,2020-01-03 19:58:09,light snow
89,Yeppoon,-23.13,150.74,73.4,73,40,5.82,AU,2020-01-03 19:58:10,scattered clouds
90,Tasiilaq,65.61,-37.64,8.53,53,100,13.85,GL,2020-01-03 19:58:11,overcast clouds
91,Te Anau,-45.41,167.72,43.68,69,100,4.81,NZ,2020-01-03 19:58:11,overcast clouds
92,Magnolia,33.27,-93.24,66.2,63,75,5.82,US,2020-01-03 19:58:11,broken clouds
93,Margate,-43.03,147.26,64.4,63,100,11.41,AU,2020-01-03 19:58:12,overcast clouds
94,Bulgan,48.81,103.53,6.76,63,0,3.22,MN,2020-01-03 19:58:12,clear sky
95,Natal,-5.81,-35.21,86.0,66,20,14.99,BR,2020-01-03 19:58:13,few clouds
96,Nishihara,35.74,139.53,44.6,54,0,10.29,JP,2020-01-03 19:58:13,clear sky
97,Biograd Na Moru,43.94,15.45,39.99,100,49,4.7,HR,2020-01-03 19:58:13,fog
98,Baturaja,-4.12,104.17,72.63,95,87,4.16,ID,2020-01-03 19:58:14,overcast clouds
99,Abnub,27.27,31.15,50.0,71,0,10.29,EG,2020-01-03 19:58:14,clear sky
100,Igarka,67.47,86.57,-1.5,96,96,12.21,RU,2020-01-03 19:58:14,light snow
101,Georgetown,6.8,-58.16,84.2,70,20,9.17,GY,2020-01-03 19:58:15,few clouds
102,Bilma,18.69,12.92,50.65,27,0,5.12,NE,2020-01-03 19:58:15,clear sky
103,Umba,66.69,34.34,33.64,85,100,23.98,RU,2020-01-03 19:58:16,overcast clouds
104,New Norfolk,-42.78,147.06,64.4,63,67,11.41,AU,2020-01-03 19:58:16,broken clouds
105,Hithadhoo,-0.6,73.08,82.99,68,0,5.37,MV,2020-01-03 19:58:17,clear sky
106,Puerto Ayora,-0.74,-90.35,84.2,58,75,17.22,EC,2020-01-03 19:58:17,broken clouds
107,Avarua,-21.21,-159.78,80.6,69,0,6.93,CK,2020-01-03 19:56:20,clear sky
108,Broome,52.47,1.45,42.01,80,98,8.05,GB,2020-01-03 19:54:18,overcast clouds
109,Chuy,-33.69,-53.46,71.96,67,0,13.53,UY,2020-01-03 19:54:18,clear sky
110,Port Blair,11.67,92.75,81.32,74,0,7.45,IN,2020-01-03 19:58:18,clear sky
111,Yulara,-25.24,130.99,75.2,94,40,5.82,AU,2020-01-03 19:58:19,scattered clouds
112,Geraldton,49.72,-86.95,17.6,78,90,5.82,CA,2020-01-03 19:58:19,light snow
113,Mar Del Plata,-46.43,-67.52,80.64,28,98,34.02,AR,2020-01-03 19:58:19,overcast clouds
114,Beyneu,45.32,55.19,28.09,67,0,4.36,KZ,2020-01-03 19:58:20,clear sky
115,Saint George,39.45,22.34,33.8,74,20,1.72,GR,2020-01-03 19:54:20,few clouds
116,Kavieng,-2.57,150.8,84.42,70,100,3.4,PG,2020-01-03 19:58:20,overcast clouds
117,Mwinilunga,-11.73,24.43,63.14,94,95,3.44,ZM,2020-01-03 19:58:21,light rain
118,Trairi,-3.28,-39.27,79.39,78,58,5.79,BR,2020-01-03 19:53:23,broken clouds
119,Salalah,17.01,54.1,77.0,57,20,8.05,OM,2020-01-03 19:58:21,few clouds
120,Wewak,-3.55,143.63,75.18,91,100,5.57,PG,2020-01-03 19:58:22,light rain
121,Norman Wells,65.28,-126.83,-11.2,76,75,9.17,CA,2020-01-03 19:54:22,light snow
122,Vaini,15.34,74.49,63.27,76,45,2.39,IN,2020-01-03 19:58:23,scattered clouds
123,Burnie,-41.05,145.91,63.0,81,100,3.0,AU,2020-01-03 19:58:23,overcast clouds
124,Mikhaylovka,52.96,103.29,6.94,85,5,1.34,RU,2020-01-03 19:58:23,clear sky
125,Belozerskoye,55.82,65.58,12.06,88,100,15.37,RU,2020-01-03 19:58:24,overcast clouds
126,Luderitz,-26.65,15.16,65.14,72,0,31.16,NA,2020-01-03 19:58:25,clear sky
127,Kovernino,57.13,43.81,31.59,89,99,14.63,RU,2020-01-03 19:58:25,overcast clouds
128,Saldanha,41.42,-6.55,41.36,94,0,1.25,PT,2020-01-03 19:54:26,clear sky
129,Bud,62.91,6.91,33.8,68,75,39.15,NO,2020-01-03 19:54:26,broken clouds
130,Alyangula,-13.85,136.42,78.8,94,50,3.36,AU,2020-01-03 19:58:26,scattered clouds
131,Abha,18.22,42.5,60.8,72,12,9.17,SA,2020-01-03 19:58:27,few clouds
132,Sovetskiy,56.76,48.47,30.88,92,100,19.6,RU,2020-01-03 19:58:27,overcast clouds
133,Malchin,53.74,12.76,43.0,93,75,9.17,DE,2020-01-03 19:58:27,light rain
134,Maningrida,-12.05,134.23,80.51,75,61,2.51,AU,2020-01-03 19:58:28,broken clouds
135,Camacha,33.08,-16.33,64.4,72,40,9.17,PT,2020-01-03 19:54:28,scattered clouds
136,Porto Novo,-23.68,-45.44,77.0,61,40,12.75,BR,2020-01-03 19:58:29,scattered clouds
137,Cape Town,-33.93,18.42,68.0,82,20,17.22,ZA,2020-01-03 19:58:29,few clouds
138,Praia Da Vitoria,38.73,-27.07,59.0,72,20,12.73,PT,2020-01-03 19:58:29,few clouds
139,Binzhou,37.38,117.96,36.0,65,67,3.27,CN,2020-01-03 19:58:30,broken clouds
140,Ingham,-18.65,146.16,74.98,86,93,1.57,AU,2020-01-03 19:58:30,overcast clouds
141,Fez,34.03,-5.02,48.2,81,25,8.05,MA,2020-01-03 19:54:31,scattered clouds
142,Omboue,-1.57,9.26,76.05,94,100,4.65,GA,2020-01-03 19:58:31,light rain
143,Torbay,47.66,-52.73,33.01,80,75,28.86,CA,2020-01-03 19:58:31,broken clouds
144,Hervey Bay,-25.3,152.85,70.0,88,0,6.93,AU,2020-01-03 19:58:31,clear sky
145,Shieli,44.18,66.74,37.56,83,100,11.79,KZ,2020-01-03 19:58:32,overcast clouds
146,Mantena,-18.78,-40.98,76.8,86,66,3.76,BR,2020-01-03 19:58:32,moderate rain
147,Tefe,-3.35,-64.71,89.6,59,75,8.05,BR,2020-01-03 19:58:32,broken clouds
148,Iqaluit,63.75,-68.52,6.8,84,75,3.36,CA,2020-01-03 19:54:33,light snow
149,Vila Velha,-3.71,-38.6,86.0,66,40,13.87,BR,2020-01-03 19:58:33,scattered clouds
150,Itaueira,-7.6,-43.03,77.76,79,73,1.01,BR,2020-01-03 19:54:34,broken clouds
151,Ancud,-41.87,-73.83,66.2,77,75,17.22,CL,2020-01-03 19:54:34,light intensity shower rain
152,Kolosovka,56.47,73.61,3.65,92,18,13.85,RU,2020-01-03 19:54:34,few clouds
153,Shenjiamen,29.96,122.3,53.47,93,100,14.05,CN,2020-01-03 19:58:34,light rain
154,Okha,53.59,142.95,-1.77,97,100,9.08,RU,2020-01-03 19:54:35,overcast clouds
155,Churapcha,62.0,132.43,-33.18,96,13,5.99,RU,2020-01-03 19:58:36,few clouds
156,Christchurch,-43.53,172.64,64.99,87,83,4.7,NZ,2020-01-03 19:54:55,light rain
157,Mana,13.03,5.27,62.02,19,12,13.78,NG,2020-01-03 19:58:36,few clouds
158,Ust-Kishert,57.36,57.24,24.8,90,100,20.98,RU,2020-01-03 19:58:37,light snow
159,Katsina,12.99,7.6,60.01,19,36,15.97,NG,2020-01-03 19:58:37,scattered clouds
160,Koumac,-20.56,164.28,73.6,77,55,4.85,NC,2020-01-03 19:58:38,light rain
161,Esperance,-33.86,121.89,53.6,76,90,9.17,AU,2020-01-03 19:58:38,overcast clouds
162,Villarrica,-39.28,-72.23,84.99,57,0,13.87,CL,2020-01-03 19:58:39,clear sky
163,Sortland,68.69,15.42,32.0,80,75,17.22,NO,2020-01-03 19:54:39,light shower snow
164,Labelle,26.76,-81.44,87.01,65,1,14.99,US,2020-01-03 19:58:39,clear sky
165,Clyde River,70.47,-68.59,-23.8,67,40,14.99,CA,2020-01-03 19:54:40,scattered clouds
166,Pisco,-13.71,-76.2,73.0,30,23,20.8,PE,2020-01-03 19:58:40,few clouds
167,Atar,20.52,-13.05,59.41,16,100,11.95,MR,2020-01-03 19:58:40,overcast clouds
168,Vanavara,60.35,102.28,22.71,94,100,9.51,RU,2020-01-03 19:58:41,light snow
169,Vrangel,42.73,133.08,23.11,58,99,16.31,RU,2020-01-03 19:54:42,overcast clouds
170,Cherskiy,68.75,161.3,1.56,67,63,11.45,RU,2020-01-03 19:58:41,broken clouds
171,Bereda,43.27,-7.54,51.01,100,41,1.12,ES,2020-01-03 19:58:42,scattered clouds
172,Sitka,37.17,-99.65,48.0,44,17,11.01,US,2020-01-03 19:54:43,few clouds
173,Romny,50.74,33.49,29.23,93,0,8.7,UA,2020-01-03 19:58:42,clear sky
174,Hami,42.84,93.51,16.0,62,0,1.39,CN,2020-01-03 19:58:43,clear sky
175,College,64.86,-147.8,-5.01,74,1,3.74,US,2020-01-03 19:58:43,mist
176,Aklavik,68.22,-135.01,-14.8,75,90,11.41,CA,2020-01-03 19:58:43,light snow
177,Birao,10.3,22.78,71.1,22,90,8.48,CF,2020-01-03 19:58:44,overcast clouds
178,Sorland,67.67,12.69,39.2,80,75,9.17,NO,2020-01-03 19:58:44,shower rain
179,Lake City,38.03,-107.32,36.0,42,1,4.7,US,2020-01-03 19:58:44,clear sky
180,Progreso,-34.68,-56.22,79.0,57,40,16.11,UY,2020-01-03 19:58:45,scattered clouds
181,Fukue,35.03,136.69,48.2,70,75,16.11,JP,2020-01-03 19:54:46,broken clouds
182,Chibombo,-14.68,28.09,68.22,87,100,3.31,ZM,2020-01-03 19:58:45,light rain
183,Knysna,-34.04,23.05,68.0,94,43,3.36,ZA,2020-01-03 19:58:46,scattered clouds
184,Auki,12.18,6.51,62.94,19,53,16.37,NG,2020-01-03 19:58:46,broken clouds
185,Mount Isa,-20.73,139.49,77.0,65,0,7.23,AU,2020-01-03 19:58:47,clear sky
186,Santa Cruz,-6.22,-36.02,80.89,64,35,11.7,BR,2020-01-03 19:58:47,scattered clouds
187,Olinda,-37.84,145.39,80.6,14,20,17.22,AU,2020-01-03 19:58:47,few clouds
188,Kavaratti,10.57,72.64,81.28,77,98,12.68,IN,2020-01-03 19:54:48,overcast clouds
189,Khorixas,-20.37,14.96,76.03,62,100,10.56,NA,2020-01-03 19:58:48,moderate rain
190,Gornopravdinsk,60.06,69.92,12.2,93,100,12.3,RU,2020-01-03 19:54:50,light snow
191,Vestmannaeyjar,63.44,-20.27,23.0,67,35,22.88,IS,2020-01-03 19:58:49,scattered clouds
192,Palm Coast,29.55,-81.22,84.0,65,40,11.41,US,2020-01-03 19:58:50,scattered clouds
193,Marsh Harbour,26.54,-77.06,76.48,79,100,11.45,BS,2020-01-03 19:54:51,overcast clouds
194,Hualmay,-11.1,-77.61,77.27,59,80,10.96,PE,2020-01-03 19:58:50,broken clouds
195,Kloulklubed,7.04,134.26,81.09,75,73,18.19,PW,2020-01-03 19:58:51,broken clouds
196,Hobart,-42.88,147.33,64.4,63,100,11.41,AU,2020-01-03 19:57:22,overcast clouds
197,Guerrero Negro,27.97,-114.04,68.86,28,0,5.82,MX,2020-01-03 19:58:52,clear sky
198,Ulyanovsk,54.31,48.36,33.8,80,90,15.66,RU,2020-01-03 19:58:52,overcast clouds
199,Lavrentiya,65.58,-170.99,-15.93,93,3,8.16,RU,2020-01-03 19:54:53,clear sky
200,Finschhafen,-6.6,147.85,81.27,81,100,13.31,PG,2020-01-03 19:58:53,light rain
201,Hnaberd,40.64,44.14,32.0,92,90,5.3,AM,2020-01-03 19:58:53,light snow
202,Harper,30.3,-99.24,63.0,46,90,19.46,US,2020-01-03 19:55:49,overcast clouds
203,Hermanus,-34.42,19.24,68.0,77,4,12.64,ZA,2020-01-03 19:58:54,clear sky
204,Humberto De Campos,-2.6,-43.46,80.49,81,100,6.02,BR,2020-01-03 19:54:56,light rain
205,Kahului,20.89,-156.47,71.6,82,90,12.75,US,2020-01-03 19:58:55,light rain
206,Salina,38.84,-97.61,50.0,52,1,19.46,US,2020-01-03 19:56:07,clear sky
207,Marzuq,14.4,46.47,61.95,84,0,4.72,YE,2020-01-03 19:58:56,clear sky
208,Dunedin,-45.87,170.5,51.01,60,49,35.01,NZ,2020-01-03 19:54:57,moderate rain
209,Svetlogorsk,53.14,59.15,17.6,85,90,15.66,RU,2020-01-03 19:58:56,light snow
210,Huambo,-12.78,15.73,63.86,95,100,7.65,AO,2020-01-03 19:58:57,moderate rain
211,Praia,-20.25,-43.81,77.0,88,75,3.02,BR,2020-01-03 19:54:58,broken clouds
212,Vinh,18.67,105.69,67.12,94,99,1.88,VN,2020-01-03 19:58:58,light rain
213,Cidreira,-30.17,-50.22,72.79,79,4,24.34,BR,2020-01-03 19:58:58,light rain
214,Codrington,-28.95,153.24,68.0,100,0,8.05,AU,2020-01-03 19:54:59,clear sky
215,Alencon,48.43,0.08,48.2,81,90,9.17,FR,2020-01-03 19:58:59,overcast clouds
216,Deputatskiy,69.3,139.9,-21.8,98,13,2.39,RU,2020-01-03 19:58:59,few clouds
217,Harrismith,-28.27,29.13,57.88,82,15,2.39,ZA,2020-01-03 19:55:01,light rain
218,Havoysund,71.0,24.66,32.0,80,90,25.28,NO,2020-01-03 19:55:01,light shower snow
219,Kaitangata,-46.28,169.85,49.89,68,99,36.62,NZ,2020-01-03 19:55:01,light rain
220,Castro,-42.48,-73.76,66.2,77,75,17.22,CL,2020-01-03 19:55:02,light intensity shower rain
221,Cabo San Lucas,22.89,-109.91,73.99,56,5,9.17,MX,2020-01-03 19:56:36,clear sky
222,Am Timan,11.04,20.28,71.69,23,30,7.43,TD,2020-01-03 19:59:03,scattered clouds
223,Filingue,14.35,3.32,62.64,20,1,13.98,NE,2020-01-03 19:59:03,clear sky
224,Riohacha,11.54,-72.91,93.2,41,20,23.04,CO,2020-01-03 19:57:44,few clouds
225,Arauco,-37.25,-73.32,78.8,57,0,18.34,CL,2020-01-03 19:55:04,clear sky
226,Boca Do Acre,-8.76,-67.39,79.32,94,92,2.06,BR,2020-01-03 19:59:04,light rain
227,Vangaindrano,-23.35,47.6,72.14,96,70,3.69,MG,2020-01-03 19:55:05,light rain
228,Lorengau,-2.02,147.27,83.77,74,100,4.21,PG,2020-01-03 19:59:05,light rain
229,Fort Nelson,58.81,-122.69,-11.2,83,75,2.24,CA,2020-01-03 19:59:05,broken clouds
230,Maniitsoq,65.42,-52.9,24.22,53,89,1.88,GL,2020-01-03 19:59:05,overcast clouds
231,Raudeberg,61.99,5.14,35.01,74,40,27.51,NO,2020-01-03 19:55:07,scattered clouds
232,Pokhara,28.21,83.99,44.98,87,3,1.99,NP,2020-01-03 19:59:06,clear sky
233,Lusambo,-4.97,23.44,69.04,97,100,1.16,CD,2020-01-03 19:55:07,overcast clouds
234,Galesong,-5.32,119.37,75.2,100,20,5.82,ID,2020-01-03 19:59:07,few clouds
235,Tautira,-17.73,-149.15,84.2,74,75,19.46,PF,2020-01-03 19:59:07,broken clouds
236,Bethel,60.79,-161.76,-9.4,83,1,12.75,US,2020-01-03 19:59:08,clear sky
237,Alice Springs,-23.7,133.88,82.4,48,49,8.05,AU,2020-01-03 19:59:08,scattered clouds
238,Upernavik,72.79,-56.15,-7.73,99,100,14.83,GL,2020-01-03 19:59:08,light snow
239,Baykit,61.68,96.39,14.04,96,100,3.29,RU,2020-01-03 19:59:09,light snow
240,Puno,-15.84,-70.03,60.8,51,75,14.99,PE,2020-01-03 19:59:09,broken clouds
241,Sainte-Marie,46.45,-71.03,37.0,98,90,3.36,CA,2020-01-03 19:59:10,overcast clouds
242,Belmonte,40.36,-7.35,48.99,93,4,1.39,PT,2020-01-03 19:55:11,clear sky
243,Gladstone,-23.84,151.26,73.4,73,40,5.82,AU,2020-01-03 19:55:12,scattered clouds
244,Nuevo Progreso,26.05,-97.95,73.4,31,1,11.41,US,2020-01-03 19:59:12,clear sky
245,Namibe,-15.19,12.15,72.03,94,100,5.59,AO,2020-01-03 19:59:12,moderate rain
246,Saurimo,-9.66,20.4,66.25,95,99,2.26,AO,2020-01-03 19:59:13,overcast clouds
247,Portland,43.66,-70.25,46.4,52,90,4.7,US,2020-01-03 19:59:13,overcast clouds
248,Severnoye,54.09,52.54,24.21,96,100,15.73,RU,2020-01-03 19:59:13,light snow
249,Kwinana,-32.25,115.77,57.2,50,0,10.29,AU,2020-01-03 19:55:15,clear sky
250,Kintampo,8.05,-1.73,74.79,12,6,5.91,GH,2020-01-03 19:59:14,clear sky
251,Rock Springs,41.59,-109.2,30.2,74,90,25.28,US,2020-01-03 19:59:14,overcast clouds
252,Vidim,50.47,14.53,44.01,80,75,17.22,CZ,2020-01-03 19:55:16,broken clouds
253,Arlit,18.74,7.39,57.25,24,0,17.22,NE,2020-01-03 19:59:15,clear sky
254,Thinadhoo,0.53,72.93,83.14,65,42,4.9,MV,2020-01-03 19:55:16,scattered clouds
255,Padang,-0.92,100.36,68.11,92,100,5.28,ID,2020-01-03 19:56:16,overcast clouds
256,Takoradi,4.89,-1.75,80.22,56,15,4.7,GH,2020-01-03 19:55:17,few clouds
257,Yazd,31.89,54.36,46.4,45,40,4.7,IR,2020-01-03 19:55:17,haze
258,Pangnirtung,66.15,-65.72,5.0,84,90,3.36,CA,2020-01-03 19:59:17,light snow
259,Barra Do Garcas,-15.89,-52.26,84.2,74,99,3.36,BR,2020-01-03 19:54:29,shower rain
260,Srednekolymsk,67.46,153.71,-2.07,78,0,2.71,RU,2020-01-03 19:55:18,clear sky
261,Aykhal,65.95,111.51,-16.6,82,0,2.24,RU,2020-01-03 19:59:18,clear sky
262,Alugan,12.22,125.48,78.53,84,44,15.97,PH,2020-01-03 19:59:18,light rain
263,Grindavik,63.84,-22.43,21.2,62,58,12.75,IS,2020-01-03 19:59:18,broken clouds
264,Sterling,39.0,-77.4,54.0,93,90,4.83,US,2020-01-03 19:59:19,moderate rain
265,Lander,42.83,-108.73,39.99,75,1,5.82,US,2020-01-03 19:59:19,clear sky
266,Haines Junction,60.75,-137.51,-6.2,99,100,6.46,CA,2020-01-03 19:59:19,light snow
267,Ginir,7.14,40.71,59.45,78,23,4.94,ET,2020-01-03 19:59:20,few clouds
268,Cotonou,6.37,2.43,78.8,44,85,4.7,BJ,2020-01-03 19:59:20,dust
269,Coffeyville,37.04,-95.62,53.01,53,1,12.75,US,2020-01-03 19:54:50,clear sky
270,Mantua,45.16,10.79,46.0,93,99,4.7,IT,2020-01-03 19:59:21,overcast clouds
271,Curitibanos,-27.29,-50.58,80.01,99,91,5.01,BR,2020-01-03 19:59:21,light rain
272,Cabedelo,-6.97,-34.84,86.0,62,40,11.41,BR,2020-01-03 19:59:22,scattered clouds
273,Unity,52.44,-109.15,19.99,83,87,1.01,CA,2020-01-03 19:59:22,overcast clouds
274,Manta,45.1,24.1,34.7,44,0,2.42,RO,2020-01-03 19:59:23,clear sky
275,Nanortalik,60.14,-45.24,33.46,61,100,5.41,GL,2020-01-03 19:59:23,overcast clouds
276,Sao Filipe,14.9,-24.5,71.44,73,85,13.04,CV,2020-01-03 19:55:25,overcast clouds
277,Khomutovka,51.92,34.56,27.19,95,42,10.8,RU,2020-01-03 19:59:24,scattered clouds
278,Uglovskoye,51.36,80.19,17.15,93,100,7.29,RU,2020-01-03 19:59:24,overcast clouds
279,Antofagasta,-23.65,-70.4,71.6,64,20,18.34,CL,2020-01-03 19:59:25,few clouds
280,Port Moresby,-9.47,147.16,75.2,100,75,5.82,PG,2020-01-03 19:59:25,broken clouds
281,Rancho Palos Verdes,33.75,-118.37,73.0,39,20,2.91,US,2020-01-03 19:55:27,few clouds
282,Yumen,40.29,97.04,15.26,61,0,2.62,CN,2020-01-03 19:59:26,clear sky
283,Charlottetown,46.23,-63.13,36.0,86,90,6.93,CA,2020-01-03 19:59:26,overcast clouds
284,Puerto Del Rosario,28.5,-13.86,64.4,45,0,13.87,ES,2020-01-03 19:59:27,clear sky
285,Amahai,-3.31,129.0,84.0,84,92,9.93,ID,2020-01-03 19:59:27,overcast clouds
286,La Ronge,55.1,-105.3,14.0,85,90,6.93,CA,2020-01-03 19:59:28,light snow
287,Port Elizabeth,39.31,-74.98,53.01,87,90,4.7,US,2020-01-03 19:59:28,overcast clouds
288,Det Udom,14.9,105.08,71.6,83,83,6.93,TH,2020-01-03 19:55:30,broken clouds
289,Hamilton,43.26,-79.87,46.99,75,90,8.05,CA,2020-01-03 19:55:11,overcast clouds
290,Oranjemund,-28.55,16.43,60.69,89,0,12.5,ZA,2020-01-03 19:59:29,clear sky
291,Sayanogorsk,53.09,91.41,12.96,70,4,7.76,RU,2020-01-03 19:59:30,clear sky
292,Petropavlovsk-Kamchatskiy,53.05,158.65,6.8,84,40,4.47,RU,2020-01-03 19:59:30,scattered clouds
293,Vao,59.1,26.19,38.37,76,100,9.35,EE,2020-01-03 19:59:31,light rain
294,Vostok,46.45,135.83,-15.99,96,21,5.1,RU,2020-01-03 19:55:32,few clouds
295,Ponta Do Sol,-20.63,-46.0,76.98,78,92,1.95,BR,2020-01-03 19:55:33,light rain
296,Nemuro,43.32,145.57,22.55,60,31,18.23,JP,2020-01-03 19:59:32,scattered clouds
297,Aksarka,66.56,67.8,7.63,97,91,8.28,RU,2020-01-03 19:55:33,overcast clouds
298,Zhangye,38.94,100.46,21.34,53,41,5.37,CN,2020-01-03 19:59:33,scattered clouds
299,Ilulissat,69.22,-51.1,19.4,44,40,13.87,GL,2020-01-03 19:59:33,scattered clouds
300,Mexico,39.17,-91.88,42.01,86,90,8.05,US,2020-01-03 19:57:59,overcast clouds
301,Ahipara,-35.17,173.16,63.0,96,100,4.0,NZ,2020-01-03 19:59:34,overcast clouds
302,Monrovia,6.33,-10.8,77.0,78,20,8.03,LR,2020-01-03 19:59:34,few clouds
303,Omsukchan,62.53,155.8,-4.65,98,100,4.88,RU,2020-01-03 19:55:36,overcast clouds
304,Nyazepetrovsk,56.06,59.6,17.58,91,100,14.52,RU,2020-01-03 19:59:35,light snow
305,Hereford,52.06,-2.72,42.01,89,77,10.63,GB,2020-01-03 19:59:36,broken clouds
306,Chikwawa,-16.03,34.79,68.76,89,100,4.68,MW,2020-01-03 19:59:36,light rain
307,Kindu,-2.95,25.92,71.01,98,100,2.19,CD,2020-01-03 19:59:36,light rain
308,Dullewala,31.84,71.44,51.89,47,0,3.49,PK,2020-01-03 19:55:38,clear sky
309,Constitucion,23.99,-104.67,55.4,26,5,5.82,MX,2020-01-03 19:59:37,clear sky
310,Muscat,23.6,58.55,69.8,68,0,3.36,OM,2020-01-03 19:59:37,clear sky
311,Hasaki,35.73,140.83,30.2,92,0,2.24,JP,2020-01-03 19:55:39,clear sky
312,Komsomolskiy,67.55,63.78,8.8,95,99,9.28,RU,2020-01-03 19:55:39,light snow
313,Faanui,-16.48,-151.75,81.37,80,54,12.93,PF,2020-01-03 19:55:40,broken clouds
314,Kunming,25.04,102.71,48.0,100,100,8.95,CN,2020-01-03 19:55:40,overcast clouds
315,Rio Grande,-32.03,-52.1,78.8,57,75,19.46,BR,2020-01-03 19:59:39,broken clouds
316,Yenagoa,4.92,6.26,76.87,37,0,3.11,NG,2020-01-03 19:59:40,clear sky
317,Rosario,-34.31,-57.35,82.99,69,20,16.11,UY,2020-01-03 19:59:40,few clouds
318,Buraydah,26.33,43.97,62.6,63,75,5.82,SA,2020-01-03 19:59:40,broken clouds
319,Kirakira,-10.46,161.92,79.74,81,40,8.34,SB,2020-01-03 19:59:41,scattered clouds
320,Unai,-16.36,-46.91,77.32,87,60,2.26,BR,2020-01-03 19:57:13,light rain
321,Dakar,14.69,-17.45,80.6,13,100,12.75,SN,2020-01-03 19:59:41,dust
322,Bonavista,48.65,-53.11,31.17,84,91,13.73,CA,2020-01-03 19:59:42,overcast clouds
323,Salym,60.06,71.48,10.94,92,100,12.68,RU,2020-01-03 19:55:44,light snow
324,Mazamari,-11.33,-74.53,69.57,95,69,1.74,PE,2020-01-03 19:55:44,light rain
325,Santiago De Cuba,20.03,-75.83,86.0,62,40,12.75,CU,2020-01-03 19:55:44,scattered clouds
326,San Policarpo,12.18,125.51,78.53,84,44,15.97,PH,2020-01-03 19:55:45,light rain
327,Fountain,38.68,-104.7,48.99,20,1,8.05,US,2020-01-03 19:55:45,clear sky
328,Les Cayes,18.19,-73.75,81.32,71,0,6.73,HT,2020-01-03 19:55:46,clear sky
329,Tuatapere,-46.13,167.69,48.99,76,100,14.0,NZ,2020-01-03 19:55:46,light rain
330,Jiuquan,39.73,98.49,19.09,37,100,1.99,CN,2020-01-03 19:55:46,overcast clouds
331,Capinota,-17.71,-66.26,77.0,36,75,5.35,BO,2020-01-03 19:55:47,broken clouds
332,Turukhansk,65.8,87.96,-1.8,97,100,7.31,RU,2020-01-03 19:55:47,light snow
333,Xuddur,4.12,43.89,80.01,40,1,10.89,SO,2020-01-03 19:55:48,clear sky
334,Katsuura,33.93,134.5,46.99,70,20,5.82,JP,2020-01-03 19:55:48,few clouds
335,Druzhba,52.05,33.94,27.61,94,26,10.65,UA,2020-01-03 19:55:48,scattered clouds
336,Ossora,59.24,163.07,24.96,84,100,19.35,RU,2020-01-03 19:55:49,light snow
337,Kungurtug,50.6,97.53,0.1,81,0,2.53,RU,2020-01-03 19:55:49,clear sky
338,North Bend,43.41,-124.22,55.99,66,1,4.94,US,2020-01-03 19:55:49,clear sky
339,Great Yarmouth,52.61,1.73,41.0,80,98,8.05,GB,2020-01-03 19:55:50,overcast clouds
340,Fort-Shevchenko,44.51,50.26,29.8,65,0,3.74,KZ,2020-01-03 19:55:50,clear sky
341,Anajatuba,-3.26,-44.62,77.59,93,100,3.94,BR,2020-01-03 19:55:50,moderate rain
342,Cascais,38.7,-9.42,57.2,87,0,3.36,PT,2020-01-03 19:55:51,clear sky
343,Montevideo,44.94,-95.72,33.8,86,90,13.87,US,2020-01-03 19:55:51,light rain
344,Iskateley,67.68,53.15,33.35,97,100,14.9,RU,2020-01-03 19:55:51,light snow
345,Emerald,-23.53,148.16,71.6,73,48,4.7,AU,2020-01-03 19:55:52,scattered clouds
346,Lasa,34.92,32.53,51.8,81,40,8.05,CY,2020-01-03 19:55:52,scattered clouds
347,Aksu,52.04,76.93,24.8,92,90,8.95,KZ,2020-01-03 19:55:52,overcast clouds
348,Kasempa,-13.46,25.83,65.95,90,100,1.14,ZM,2020-01-03 19:55:53,light rain
349,Sinnamary,5.38,-52.96,80.15,77,100,10.8,GF,2020-01-03 19:55:53,overcast clouds
350,Kannur,11.88,75.37,77.0,94,20,1.12,IN,2020-01-03 19:55:54,mist
351,Itupiranga,-5.13,-49.33,87.8,66,40,3.36,BR,2020-01-03 19:55:54,scattered clouds
352,San Quintin,17.54,120.52,65.25,81,47,5.28,PH,2020-01-03 19:55:55,scattered clouds
353,Namatanai,-3.66,152.44,83.28,74,100,2.35,PG,2020-01-03 19:55:55,overcast clouds
354,Santa Isabel Do Rio Negro,-0.41,-65.02,91.29,47,4,2.64,BR,2020-01-03 19:55:55,clear sky
355,Henties Bay,-22.12,14.28,63.0,88,17,1.99,NA,2020-01-03 19:55:56,few clouds
356,Mareeba,-16.99,145.42,78.8,78,40,6.93,AU,2020-01-03 19:55:57,light intensity shower rain
357,Westport,41.14,-73.36,48.0,93,90,5.82,US,2020-01-03 19:51:08,light rain
358,Ambulu,-8.35,113.61,82.56,75,21,15.17,ID,2020-01-03 19:55:57,light rain
359,San Francisco,1.17,-76.88,73.4,69,40,6.93,CO,2020-01-03 19:52:29,scattered clouds
360,Yerbogachen,61.28,108.01,13.41,96,100,1.9,RU,2020-01-03 19:55:58,light snow
361,Barabinsk,55.35,78.35,2.14,97,82,9.06,RU,2020-01-03 19:55:59,broken clouds
362,Bandarbeyla,9.49,50.81,78.6,76,100,16.55,SO,2020-01-03 19:55:59,light rain
363,Tongchuan,34.9,108.95,23.0,92,83,2.24,CN,2020-01-03 19:55:59,mist
364,Abonnema,4.71,6.79,77.0,50,0,3.36,NG,2020-01-03 19:56:00,haze
365,Acari,-6.44,-36.64,88.59,39,100,18.07,BR,2020-01-03 19:56:00,overcast clouds
366,Yafran,32.06,12.53,44.38,52,0,6.44,LY,2020-01-03 19:56:00,clear sky
367,Beringovskiy,63.05,179.32,-10.12,80,0,17.11,RU,2020-01-03 19:56:01,clear sky
368,Tarime,-1.35,34.38,68.0,94,20,2.98,TZ,2020-01-03 19:56:01,few clouds
369,Salvador,-12.98,-38.48,78.8,83,75,8.05,BR,2020-01-03 19:54:52,shower rain
370,Fort Walton Beach,30.41,-86.62,79.0,83,90,21.92,US,2020-01-03 19:56:02,moderate rain
371,Benghazi,32.12,20.07,58.3,64,26,16.89,LY,2020-01-03 19:56:03,light rain
372,Mukhen,48.19,136.14,-10.03,91,0,5.66,RU,2020-01-03 19:56:03,clear sky
373,Tshikapa,-6.42,20.79,70.61,90,100,1.92,CD,2020-01-03 19:56:03,overcast clouds
374,Taoudenni,22.68,-3.98,58.84,24,85,12.62,ML,2020-01-03 19:56:04,overcast clouds
375,Fortuna,40.6,-124.16,55.99,66,20,8.05,US,2020-01-03 19:56:04,few clouds
376,Porto Belo,-27.15,-48.54,84.0,74,40,17.22,BR,2020-01-03 19:56:05,scattered clouds
377,Kagadi,0.95,30.8,67.91,66,100,2.19,UG,2020-01-03 19:56:05,light rain
378,Lyngseidet,69.58,20.21,32.0,93,75,13.87,NO,2020-01-03 19:56:06,broken clouds
379,West Lafayette,40.43,-86.91,43.0,93,100,6.93,US,2020-01-03 19:56:06,mist
380,San Patricio,-26.98,-56.83,90.57,34,0,8.63,PY,2020-01-03 19:56:06,clear sky
381,Kunszentmiklos,47.03,19.13,28.99,100,90,4.34,HU,2020-01-03 19:56:07,fog
382,Palora,-1.7,-77.97,73.4,73,75,8.05,EC,2020-01-03 19:56:07,broken clouds
383,Voh,-20.95,164.69,76.32,72,0,4.68,NC,2020-01-03 19:56:07,clear sky
384,Saint-Pierre,48.95,4.24,50.0,100,90,11.41,FR,2020-01-03 19:56:08,overcast clouds
385,Nelson Bay,-32.72,152.14,72.0,94,0,1.12,AU,2020-01-03 19:56:08,clear sky
386,Berlevag,70.86,29.09,32.0,72,40,11.41,NO,2020-01-03 19:56:08,scattered clouds
387,Saint-Denis,48.94,2.36,50.0,87,90,12.75,FR,2020-01-03 19:56:09,overcast clouds
388,Ayan,38.23,44.7,15.35,76,97,5.61,IR,2020-01-03 19:56:09,overcast clouds
389,Hovd,63.83,10.7,39.99,70,75,23.04,NO,2020-01-03 19:56:09,shower rain
390,Kropotkin,45.43,40.58,32.0,74,0,5.7,RU,2020-01-03 19:56:10,clear sky
391,Mecca,21.43,39.83,69.76,69,21,3.83,SA,2020-01-03 19:56:07,few clouds
392,Ambilobe,-13.19,49.05,78.48,87,100,3.62,MG,2020-01-03 19:56:10,overcast clouds
393,Sarakhs,36.54,61.16,41.0,63,17,2.24,TM,2020-01-03 19:56:11,few clouds
394,Kargat,55.19,80.28,10.89,95,96,10.25,RU,2020-01-03 19:56:11,overcast clouds
395,Bocas Del Toro,9.33,-82.25,70.0,75,49,4.0,PA,2020-01-03 19:56:12,scattered clouds
396,San Cristobal,14.68,-86.92,84.87,38,47,6.06,HN,2020-01-03 19:56:12,scattered clouds
397,Narsaq,60.91,-46.05,35.6,34,75,39.15,GL,2020-01-03 19:56:12,broken clouds
398,Coahuayana,18.62,-100.35,89.02,32,84,3.36,MX,2020-01-03 19:56:13,broken clouds
399,Laguna,16.17,-88.94,87.8,66,40,4.7,BZ,2020-01-03 19:56:13,scattered clouds
400,Colac,-38.34,143.59,68.0,72,0,1.99,AU,2020-01-03 19:56:14,clear sky
401,Carrollton,33.58,-85.08,64.0,91,90,6.98,US,2020-01-03 19:53:20,light rain
402,Norrtalje,59.76,18.7,39.0,59,35,14.99,SE,2020-01-03 19:56:15,scattered clouds
403,Rozivka,47.51,38.15,33.91,98,69,6.17,UA,2020-01-03 19:56:16,broken clouds
404,High Level,58.52,-117.13,-9.4,83,75,2.24,CA,2020-01-03 19:56:16,fog
405,Francistown,-21.17,27.5,91.4,24,40,6.93,BW,2020-01-03 19:56:16,scattered clouds
406,Kralendijk,12.15,-68.27,84.2,70,74,11.41,BQ,2020-01-03 19:53:04,broken clouds
407,Batemans Bay,-35.71,150.18,68.0,97,0,8.16,AU,2020-01-03 19:56:17,clear sky
408,Kosh-Agach,49.99,88.66,-9.38,93,0,1.86,RU,2020-01-03 19:56:18,clear sky
409,Souris,46.36,-62.25,36.0,86,90,6.93,CA,2020-01-03 19:56:18,overcast clouds
410,Lhokseumawe,5.18,97.15,71.51,85,82,2.04,ID,2020-01-03 19:56:18,broken clouds
411,Savannah Bight,16.45,-85.85,82.51,72,100,25.64,HN,2020-01-03 19:56:19,overcast clouds
412,Mopti,14.49,-4.19,62.78,13,1,10.47,ML,2020-01-03 19:56:19,clear sky
413,Prince Rupert,54.32,-130.32,39.2,86,90,6.93,CA,2020-01-03 19:56:19,moderate rain
414,Tamworth,-31.09,150.93,78.8,50,0,6.93,AU,2020-01-03 19:56:20,clear sky
415,Watertown,44.9,-97.12,28.0,86,90,17.22,US,2020-01-03 19:56:20,light snow
416,Saint-Augustin,45.63,-73.98,42.01,80,90,5.82,CA,2020-01-03 19:56:20,overcast clouds
417,Hofn,64.25,-15.21,23.0,57,75,17.22,IS,2020-01-03 19:56:21,broken clouds
418,Nachingwea,-10.37,38.76,72.39,97,91,4.68,TZ,2020-01-03 19:56:21,overcast clouds
419,Turbat,26.0,63.05,63.75,81,44,0.81,PK,2020-01-03 19:56:21,scattered clouds
420,Volchikha,52.02,80.36,16.2,97,100,5.95,RU,2020-01-03 19:56:22,overcast clouds
421,Ust-Nera,64.57,143.24,-13.68,98,56,2.62,RU,2020-01-03 19:56:22,broken clouds
422,Jijiga,9.35,42.8,62.13,76,0,8.77,ET,2020-01-03 19:56:23,clear sky
423,Golfito,8.64,-83.17,81.14,83,87,2.91,CR,2020-01-03 19:56:23,light rain
424,Killybegs,54.63,-8.45,48.2,76,100,19.46,IE,2020-01-03 19:56:23,light rain
425,San Cosme Y Damian,-27.32,-56.35,87.8,48,40,8.05,PY,2020-01-03 19:56:24,scattered clouds
426,Bereznehuvate,47.31,32.85,29.62,85,0,4.72,UA,2020-01-03 19:56:24,clear sky
427,Ojinaga,29.56,-104.41,55.4,43,1,12.75,US,2020-01-03 19:56:24,clear sky
428,Tete,-16.16,33.59,80.6,88,75,9.17,MZ,2020-01-03 19:56:25,broken clouds
429,Eagle Pass,28.71,-100.5,66.2,55,20,20.8,MX,2020-01-03 19:56:25,few clouds
430,Dong Xoai,11.53,106.92,68.92,76,100,3.74,VN,2020-01-03 19:56:25,overcast clouds
431,Rabo De Peixe,37.8,-25.58,60.8,82,20,8.05,PT,2020-01-03 19:56:26,few clouds
432,Canton,40.8,-81.38,52.0,93,90,2.95,US,2020-01-03 19:55:11,light rain
433,Barahan,13.01,120.76,67.73,89,90,9.69,PH,2020-01-03 19:56:26,light rain
434,Maldonado,-34.91,-54.96,78.8,57,40,16.11,UY,2020-01-03 19:56:28,scattered clouds
435,Kizukuri,40.81,140.39,30.0,53,100,5.99,JP,2020-01-03 19:56:28,light snow
436,Chapais,49.78,-74.86,32.0,96,90,10.29,CA,2020-01-03 19:56:29,light snow
437,Pflugerville,30.44,-97.62,64.99,42,20,8.05,US,2020-01-03 19:56:29,few clouds
438,Kholm-Zhirkovskiy,55.52,33.47,28.65,86,58,11.95,RU,2020-01-03 19:56:30,broken clouds
439,Mango,4.65,22.36,75.36,41,100,1.81,CF,2020-01-03 19:56:30,overcast clouds
440,Shostka,51.86,33.47,28.27,92,1,10.69,UA,2020-01-03 19:56:31,clear sky
441,Orlik,53.95,17.74,39.2,93,90,12.75,PL,2020-01-03 19:56:31,overcast clouds
442,Sursk,53.07,45.69,32.0,72,100,15.46,RU,2020-01-03 19:56:31,overcast clouds
443,Severo-Kurilsk,50.68,156.12,18.73,81,100,8.34,RU,2020-01-03 19:56:32,overcast clouds
444,Kangaatsiaq,68.31,-53.46,16.99,59,100,5.75,GL,2020-01-03 19:56:32,overcast clouds
445,Pucara,-21.7,-64.2,89.6,60,75,9.17,BO,2020-01-03 19:56:33,broken clouds
446,Eyl,7.98,49.82,78.17,81,93,18.57,SO,2020-01-03 19:56:33,light rain
447,Palmer,-34.85,139.16,70.0,77,75,13.87,AU,2020-01-03 19:56:33,broken clouds
448,Gat,14.69,-16.54,82.4,13,100,12.75,SN,2020-01-03 19:56:34,dust
449,Pontianak,-0.02,109.34,74.25,98,95,3.22,ID,2020-01-03 19:56:34,overcast clouds
450,Ha Noi,21.02,105.84,69.8,83,90,5.82,VN,2020-01-03 19:56:35,overcast clouds
451,Zanjan,36.67,48.48,29.16,97,100,4.16,IR,2020-01-03 19:56:35,light snow
452,Sao Gabriel Da Cachoeira,-0.13,-67.09,89.6,66,20,5.82,BR,2020-01-03 19:56:35,few clouds
453,Vulcan,50.4,-113.26,37.99,73,100,14.0,CA,2020-01-03 19:56:36,overcast clouds
454,Maltahohe,-24.83,16.98,80.4,22,57,13.71,NA,2020-01-03 19:56:36,broken clouds
455,Bowen,-20.01,148.25,73.4,83,40,10.29,AU,2020-01-03 19:56:36,scattered clouds
456,Lowestoft,52.48,1.75,42.01,80,92,8.05,GB,2020-01-03 19:56:37,overcast clouds
457,Paveh,35.05,46.36,30.11,83,61,5.44,IR,2020-01-03 19:56:37,broken clouds
458,Pangoa,-12.12,-73.0,79.38,81,68,0.58,PE,2020-01-03 19:56:38,moderate rain
459,Chake Chake,-5.25,39.77,82.65,80,91,13.09,TZ,2020-01-03 19:56:38,overcast clouds
460,Oranjestad,12.52,-70.03,86.0,62,20,17.22,AW,2020-01-03 19:54:28,few clouds
461,Osa,57.28,55.46,28.78,92,100,16.44,RU,2020-01-03 19:56:39,light snow
462,Mackenzie,55.34,-123.09,17.6,92,90,8.05,CA,2020-01-03 19:56:39,light snow
463,Northam,-31.65,116.67,57.2,41,0,11.41,AU,2020-01-03 19:56:40,clear sky
464,Sept-Iles,50.2,-66.38,23.0,73,75,2.24,CA,2020-01-03 19:56:40,broken clouds
465,Castres,43.6,2.24,52.0,93,90,2.24,FR,2020-01-03 19:56:40,mist
466,Homer,59.64,-151.54,21.2,92,90,3.36,US,2020-01-03 19:56:41,light snow
467,Saint-Georges,46.12,-70.67,39.0,92,100,3.0,CA,2020-01-03 19:53:34,overcast clouds
468,Port Lincoln,-34.72,135.86,62.82,76,100,14.16,AU,2020-01-03 19:56:41,light rain
469,Karaton,-6.34,106.1,80.01,88,40,4.7,ID,2020-01-03 19:56:42,thunderstorm
470,Sorgun,39.81,35.19,27.41,93,100,3.65,TR,2020-01-03 19:56:42,overcast clouds
471,Madisonville,37.33,-87.5,57.2,100,90,2.95,US,2020-01-03 19:53:05,heavy intensity drizzle
472,Rakkestad,59.43,11.35,39.2,64,14,11.41,NO,2020-01-03 19:56:43,few clouds
473,Sal Rei,16.18,-22.92,73.4,60,100,11.41,CV,2020-01-03 19:56:43,dust
474,Lima,-12.06,-77.04,77.0,65,3,16.11,PE,2020-01-03 19:51:58,clear sky
475,Ostrovnoy,68.05,39.51,33.58,95,100,26.93,RU,2020-01-03 19:56:44,light snow
476,Puerto Colombia,10.99,-74.96,87.8,58,20,11.41,CO,2020-01-03 19:56:44,few clouds
477,Arman,59.7,150.17,22.51,72,100,33.42,RU,2020-01-03 19:56:45,overcast clouds
478,Altay,47.83,88.13,12.38,66,0,6.02,CN,2020-01-03 19:53:20,clear sky
479,Amapa,15.09,-87.97,93.2,38,20,11.41,HN,2020-01-03 19:56:45,few clouds
480,Kieta,-6.22,155.63,79.56,78,100,5.93,PG,2020-01-03 19:56:46,light rain
481,Turka,52.95,108.22,18.48,76,11,11.7,RU,2020-01-03 19:56:46,few clouds
482,Forssa,60.82,23.63,37.99,68,75,8.05,FI,2020-01-03 19:56:47,light snow
483,Lyndon,38.61,-95.68,51.8,53,1,10.29,US,2020-01-03 19:56:47,clear sky
484,Coquimbo,-29.95,-71.34,66.2,63,40,13.87,CL,2020-01-03 19:56:48,scattered clouds
485,Elbrus,43.26,42.65,11.16,21,41,5.32,RU,2020-01-03 19:56:48,scattered clouds
486,Tilichiki,60.47,166.1,-1.17,78,3,6.78,RU,2020-01-03 19:56:48,clear sky
487,Kununurra,-15.77,128.74,82.4,78,100,2.75,AU,2020-01-03 19:56:49,moderate rain
488,Guaymas,27.92,-110.9,71.01,41,0,3.0,MX,2020-01-03 19:56:49,clear sky
489,Dingle,11.0,122.67,72.45,95,87,11.16,PH,2020-01-03 19:56:49,light rain
490,Moussoro,13.64,16.49,61.54,23,44,14.72,TD,2020-01-03 19:56:50,scattered clouds
491,Barbate,36.19,-5.92,57.2,76,20,1.12,ES,2020-01-03 19:56:50,few clouds
492,Liwale,-9.8,37.92,71.28,99,91,3.0,TZ,2020-01-03 19:56:51,overcast clouds
493,Pio Ix,-6.83,-40.61,76.17,81,100,5.68,BR,2020-01-03 19:56:51,light rain
494,Tabuk,17.41,121.44,67.93,87,44,4.07,PH,2020-01-03 19:56:51,scattered clouds
495,Kurilsk,45.23,147.88,16.68,80,54,17.58,RU,2020-01-03 19:56:52,broken clouds
496,Ust-Karsk,52.71,118.82,-10.43,97,13,3.38,RU,2020-01-03 19:56:52,few clouds
497,Grosse Pointe Park,42.38,-82.94,46.0,81,90,4.7,US,2020-01-03 19:56:52,overcast clouds
498,Umm Lajj,25.02,37.27,55.94,64,0,9.44,SA,2020-01-03 19:56:53,clear sky
499,Wajima,37.4,136.9,42.22,59,97,16.04,JP,2020-01-03 19:56:53,overcast clouds
500,Matay,28.42,30.79,44.26,54,0,9.37,EG,2020-01-03 19:56:53,clear sky
501,Saint-Francois,46.42,3.91,46.4,100,90,3.36,FR,2020-01-03 19:56:54,overcast clouds
502,Road Town,18.42,-64.62,82.4,69,40,9.17,VG,2020-01-03 19:56:54,scattered clouds
503,Black River,18.03,-77.85,86.0,70,20,17.22,JM,2020-01-03 19:56:54,few clouds
504,Carmaux,44.05,2.16,45.0,100,90,4.7,FR,2020-01-03 19:56:55,mist
505,Udachnyy,66.42,112.4,-16.6,82,0,2.24,RU,2020-01-03 19:56:55,clear sky
506,Moroni,35.09,24.92,53.6,54,75,23.04,GR,2020-01-03 19:56:55,broken clouds
507,Lata,30.78,78.62,3.4,81,47,7.61,IN,2020-01-03 19:56:56,scattered clouds
508,Bolbec,49.57,0.47,44.6,75,75,11.41,FR,2020-01-03 19:56:56,broken clouds
509,Vuktyl,63.86,57.31,32.74,98,100,14.38,RU,2020-01-03 19:56:56,snow
510,Sychevka,55.83,34.27,29.14,86,39,10.67,RU,2020-01-03 19:56:57,scattered clouds
511,Prainha,-1.8,-53.48,80.78,82,97,3.27,BR,2020-01-03 19:56:57,light rain
512,Lugazi,0.37,32.94,71.04,78,100,1.34,UG,2020-01-03 19:56:58,overcast clouds
513,Chumikan,54.72,135.31,-12.98,82,0,7.14,RU,2020-01-03 19:56:58,clear sky
514,Huescar,37.81,-2.54,48.0,78,99,1.01,ES,2020-01-03 19:56:59,overcast clouds
515,Lubao,-5.39,25.75,68.34,98,100,4.38,CD,2020-01-03 19:56:59,overcast clouds
516,Lewistown,40.39,-90.15,39.0,86,90,8.05,US,2020-01-03 19:57:00,overcast clouds
517,Chino Valley,34.76,-112.45,55.0,39,1,6.67,US,2020-01-03 19:57:00,clear sky
518,Karratha,-20.74,116.85,83.46,77,0,12.46,AU,2020-01-03 19:57:00,clear sky
519,Pandan,11.72,122.09,79.05,81,100,22.39,PH,2020-01-03 19:57:01,light rain
520,Leningradskiy,69.38,178.42,-7.65,76,0,13.8,RU,2020-01-03 19:57:01,clear sky
521,Andros Town,24.73,-77.79,81.0,74,40,14.99,BS,2020-01-03 19:57:01,scattered clouds
522,Kalmunai,7.42,81.82,81.34,79,15,11.63,LK,2020-01-03 19:57:02,light rain
523,Rudesheim,49.85,7.82,48.99,93,90,11.41,DE,2020-01-03 19:57:02,overcast clouds
524,Hobyo,5.35,48.53,76.44,78,2,14.16,SO,2020-01-03 19:57:03,clear sky
525,Pochutla,15.74,-96.47,87.8,48,40,11.41,MX,2020-01-03 19:57:03,scattered clouds
526,Umm Kaddadah,13.6,26.69,62.04,29,100,15.84,SD,2020-01-03 19:57:03,overcast clouds
527,Evensk,61.92,159.24,7.43,70,100,12.06,RU,2020-01-03 19:57:04,overcast clouds
528,Dezhou,37.45,116.31,32.29,50,33,0.78,CN,2020-01-03 19:57:04,scattered clouds
529,Singapore,1.29,103.85,80.6,88,75,3.36,MY,2020-01-03 19:54:30,broken clouds
530,Roskilde,55.64,12.08,41.0,86,95,11.41,DK,2020-01-03 19:57:05,overcast clouds
531,Huarmey,-10.07,-78.15,79.25,55,76,9.78,PE,2020-01-03 19:57:05,broken clouds
532,Muswellbrook,-32.27,150.89,73.99,71,0,1.01,AU,2020-01-03 19:57:05,clear sky
533,Isangel,-19.55,169.27,75.88,73,13,13.69,VU,2020-01-03 19:57:06,light rain
